[
    {
      "mainRegion": "서울특별시",
      "lat": 37.5665,
      "lng": 126.9780,
      "subRegion": [
        { "name": "종로구", "lat": 37.5731, "lng": 126.9795 },
        { "name": "중구", "lat": 37.5636, "lng": 126.9970 },
        { "name": "용산구", "lat": 37.5326, "lng": 126.9903 },
        { "name": "성동구", "lat": 37.5631, "lng": 127.0392 },
        { "name": "광진구", "lat": 37.5475, "lng": 127.0725 },
        { "name": "동대문구", "lat": 37.5742, "lng": 127.0430 },
        { "name": "중랑구", "lat": 37.6071, "lng": 127.0922 },
        { "name": "성북구", "lat": 37.6021, "lng": 127.0181 },
        { "name": "강북구", "lat": 37.6394, "lng": 127.0252 },
        { "name": "도봉구", "lat": 37.6547, "lng": 127.0293 },
        { "name": "노원구", "lat": 37.6557, "lng": 127.0756 },
        { "name": "은평구", "lat": 37.6047, "lng": 126.9292 },
        { "name": "서대문구", "lat": 37.5663, "lng": 126.9384 },
        { "name": "마포구", "lat": 37.5565, "lng": 126.9037 },
        { "name": "양천구", "lat": 37.5184, "lng": 126.8591 },
        { "name": "강서구", "lat": 37.5502, "lng": 126.8494 },
        { "name": "구로구", "lat": 37.4952, "lng": 126.8833 },
        { "name": "금천구", "lat": 37.4559, "lng": 126.9016 },
        { "name": "영등포구", "lat": 37.5287, "lng": 126.9071 },
        { "name": "동작구", "lat": 37.5049, "lng": 126.9400 },
        { "name": "관악구", "lat": 37.4780, "lng": 126.9526 },
        { "name": "서초구", "lat": 37.4835, "lng": 127.0322 },
        { "name": "강남구", "lat": 37.4979, "lng": 127.0276 },
        { "name": "송파구", "lat": 37.5148, "lng": 127.1052 },
        { "name": "강동구", "lat": 37.5304, "lng": 127.1233 }
      ]
    },
    {
      "mainRegion": "경기도",
      "lat": 37.4138,
      "lng": 127.5183,
      "subRegion": [
        { "name": "수원시", "lat": 37.2636, "lng": 127.0286 },
        { "name": "성남시", "lat": 37.4200, "lng": 127.1265 },
        { "name": "고양시", "lat": 37.6584, "lng": 126.8320 },
        { "name": "용인시", "lat": 37.2411, "lng": 127.1776 },
        { "name": "부천시", "lat": 37.5034, "lng": 126.7660 },
        { "name": "안산시", "lat": 37.3219, "lng": 126.8309 },
        { "name": "안양시", "lat": 37.3943, "lng": 126.9568 },
        { "name": "평택시", "lat": 36.9920, "lng": 127.1126 },
        { "name": "의정부시", "lat": 37.7381, "lng": 127.0336 },
        { "name": "시흥시", "lat": 37.3801, "lng": 126.8029 },
        { "name": "파주시", "lat": 37.7599, "lng": 126.7802 },
        { "name": "김포시", "lat": 37.6153, "lng": 126.7150 },
        { "name": "광명시", "lat": 37.4780, "lng": 126.8642 },
        { "name": "광주시", "lat": 37.4292, "lng": 127.2550 },
        { "name": "군포시", "lat": 37.3614, "lng": 126.9358 },
        { "name": "오산시", "lat": 37.1452, "lng": 127.0662 },
        { "name": "이천시", "lat": 37.2727, "lng": 127.4341 },
        { "name": "안성시", "lat": 37.0079, "lng": 127.2797 },
        { "name": "구리시", "lat": 37.5944, "lng": 127.1296 },
        { "name": "남양주시", "lat": 37.6360, "lng": 127.2165 },
        { "name": "의왕시", "lat": 37.3447, "lng": 126.9680 },
        { "name": "하남시", "lat": 37.5393, "lng": 127.2147 },
        { "name": "여주시", "lat": 37.2983, "lng": 127.6376 },
        { "name": "양평군", "lat": 37.4916, "lng": 127.4872 },
        { "name": "동두천시", "lat": 37.9037, "lng": 127.0604 },
        { "name": "과천시", "lat": 37.4298, "lng": 126.9896 },
        { "name": "포천시", "lat": 37.8943, "lng": 127.2006 },
        { "name": "양주시", "lat": 37.7855, "lng": 127.0457 },
        { "name": "가평군", "lat": 37.8315, "lng": 127.5093 },
        { "name": "연천군", "lat": 38.0954, "lng": 127.0742 },
        { "name": "화성시", "lat": 37.1995, "lng": 126.8310 }
      ]
    },
    {
      "mainRegion": "부산광역시",
      "lat": 35.1796,
      "lng": 129.0756,
      "subRegion": [
        { "name": "중구", "lat": 35.1028, "lng": 129.0350 },
        { "name": "서구", "lat": 35.0982, "lng": 129.0148 },
        { "name": "동구", "lat": 35.1272, "lng": 129.0401 },
        { "name": "영도구", "lat": 35.0703, "lng": 129.0506 },
        { "name": "부산진구", "lat": 35.1502, "lng": 129.0590 },
        { "name": "동래구", "lat": 35.2323, "lng": 129.0779 },
        { "name": "남구", "lat": 35.1265, "lng": 129.0807 },
        { "name": "북구", "lat": 35.1784, "lng": 129.0646 },
        { "name": "해운대구", "lat": 35.1632, "lng": 129.1636 },
        { "name": "사하구", "lat": 35.0985, "lng": 129.0160 },
        { "name": "금정구", "lat": 35.2349, "lng": 129.0862 },
        { "name": "강서구", "lat": 35.1072, "lng": 128.9554 },
        { "name": "연제구", "lat": 35.2012, "lng": 129.0663 },
        { "name": "수영구", "lat": 35.1542, "lng": 129.1262 },
        { "name": "사상구", "lat": 35.1440, "lng": 129.0264 },
        { "name": "기장군", "lat": 35.2895, "lng": 129.2270 }
      ]
    },
    {
      "mainRegion": "강원특별자치도",
      "lat": 37.8228,
      "lng": 128.1555,
      "subRegion": [
        { "name": "춘천시", "lat": 37.8813, "lng": 127.7255 },
        { "name": "원주시", "lat": 37.3426, "lng": 127.9404 },
        { "name": "강릉시", "lat": 37.7514, "lng": 128.8764 },
        { "name": "동해시", "lat": 37.5242, "lng": 129.1158 },
        { "name": "태백시", "lat": 37.1517, "lng": 128.9881 },
        { "name": "속초시", "lat": 38.2091, "lng": 128.5917 },
        { "name": "삼척시", "lat": 38.4294, "lng": 129.1643 },
        { "name": "홍천군", "lat": 37.7115, "lng": 127.8686 },
        { "name": "횡성군", "lat": 37.3150, "lng": 128.1185 },
        { "name": "영월군", "lat": 37.1881, "lng": 128.1675 },
        { "name": "평창군", "lat": 37.3604, "lng": 128.3972 },
        { "name": "정선군", "lat": 37.4480, "lng": 128.6942 },
        { "name": "철원군", "lat": 38.2392, "lng": 127.7016 },
        { "name": "화천군", "lat": 38.1222, "lng": 127.6495 },
        { "name": "양구군", "lat": 38.1266, "lng": 127.9731 },
        { "name": "인제군", "lat": 38.1069, "lng": 128.1694 },
        { "name": "고성군", "lat": 38.4694, "lng": 128.3791 },
        { "name": "양양군", "lat": 38.0733, "lng": 128.6247 }
      ]
    },
    {
      "mainRegion": "충청북도",
      "lat": 36.6353,
      "lng": 127.4914,
      "subRegion": [
        { "name": "청주시", "lat": 36.6412, "lng": 127.4915 },
        { "name": "충주시", "lat": 36.9878, "lng": 127.9298 },
        { "name": "제천시", "lat": 37.1314, "lng": 128.1906 },
        { "name": "보은군", "lat": 36.5056, "lng": 127.7328 },
        { "name": "옥천군", "lat": 36.3013, "lng": 127.6112 },
        { "name": "영동군", "lat": 36.2456, "lng": 127.5746 },
        { "name": "진천군", "lat": 36.7765, "lng": 127.4671 },
        { "name": "괴산군", "lat": 36.7812, "lng": 127.7425 },
        { "name": "음성군", "lat": 36.7289, "lng": 127.5704 },
        { "name": "단양군", "lat": 37.0501, "lng": 128.3055 }
      ]
    },
    {
      "mainRegion": "충청남도",
      "lat": 36.5184,
      "lng": 126.8009,
      "subRegion": [
        { "name": "천안시", "lat": 36.8061, "lng": 127.1455 },
        { "name": "공주시", "lat": 36.4600, "lng": 127.1275 },
        { "name": "보령시", "lat": 36.5862, "lng": 126.6167 },
        { "name": "아산시", "lat": 36.7875, "lng": 127.0009 },
        { "name": "서산시", "lat": 36.7743, "lng": 126.4517 },
        { "name": "예산군", "lat": 36.7740, "lng": 126.7684 },
        { "name": "홍성군", "lat": 36.6786, "lng": 126.7031 },
        { "name": "기산군", "lat": 36.6512, "lng": 127.1000 },
        { "name": "논산시", "lat": 36.2023, "lng": 127.0728 },
        { "name": "계룡시", "lat": 36.2805, "lng": 127.2485 },
        { "name": "금산군", "lat": 36.1115, "lng": 127.4239 },
        { "name": "부여군", "lat": 36.3216, "lng": 126.9267 },
        { "name": "서천군", "lat": 36.0039, "lng": 126.7337 }
      ]
    },
    {
      "mainRegion": "전라북도",
      "lat": 35.7194,
      "lng": 127.1391,
      "subRegion": [
        { "name": "전주시", "lat": 35.8240, "lng": 127.1480 },
        { "name": "군산시", "lat": 35.9750, "lng": 126.7350 },
        { "name": "익산시", "lat": 35.9463, "lng": 126.9575 },
        { "name": "정읍시", "lat": 35.5631, "lng": 126.8741 },
        { "name": "남원시", "lat": 35.3767, "lng": 127.3900 },
        { "name": "김제시", "lat": 35.7969, "lng": 126.8883 },
        { "name": "완주군", "lat": 35.8765, "lng": 127.2047 },
        { "name": "진안군", "lat": 35.6344, "lng": 127.3895 },
        { "name": "무주군", "lat": 35.8050, "lng": 127.8194 },
        { "name": "장수군", "lat": 35.5853, "lng": 127.6478 },
        { "name": "임실군", "lat": 35.4866, "lng": 127.3449 },
        { "name": "순창군", "lat": 35.4710, "lng": 127.1393 },
        { "name": "고창군", "lat": 35.4167, "lng": 126.7115 }
      ]
    },
    {
      "mainRegion": "전라남도",
      "lat": 34.8169,
      "lng": 126.4634,
      "subRegion": [
        { "name": "광양시", "lat": 34.9519, "lng": 127.6821 },
        { "name": "목포시", "lat": 34.8110, "lng": 126.3918 },
        { "name": "여수시", "lat": 34.7604, "lng": 127.6629 },
        { "name": "순천시", "lat": 34.9506, "lng": 127.4939 },
        { "name": "나주시", "lat": 35.0196, "lng": 126.7150 },
        { "name": "담양군", "lat": 35.3385, "lng": 126.9866 },
        { "name": "해남군", "lat": 34.5700, "lng": 126.5934 },
        { "name": "영암군", "lat": 34.7970, "lng": 126.6655 },
        { "name": "무안군", "lat": 34.9691, "lng": 126.3963 },
        { "name": "함평군", "lat": 34.8415, "lng": 126.5095 },
        { "name": "영광군", "lat": 35.2714, "lng": 126.5089 }
      ]
    },
    {
      "mainRegion": "경상북도",
      "lat": 36.5743,
      "lng": 128.5020,
      "subRegion": [
        { "name": "포항시", "lat": 36.0217, "lng": 129.3407 },
        { "name": "경주시", "lat": 35.8575, "lng": 129.2288 },
        { "name": "구미시", "lat": 36.1195, "lng": 128.3441 },
        { "name": "안동시", "lat": 36.5653, "lng": 128.7394 },
        { "name": "김천시", "lat": 36.1393, "lng": 128.1534 },
        { "name": "상주시", "lat": 36.4144, "lng": 128.1700 },
        { "name": "문경시", "lat": 36.5961, "lng": 128.1921 },
        { "name": "경산시", "lat": 35.8293, "lng": 128.7484 },
        { "name": "군위군", "lat": 36.1035, "lng": 128.4299 },
        { "name": "의성군", "lat": 35.9541, "lng": 128.6629 },
        { "name": "청송군", "lat": 36.4006, "lng": 129.0743 },
        { "name": "영덕군", "lat": 36.4312, "lng": 129.3747 },
        { "name": "영양군", "lat": 36.1483, "lng": 129.0857 }
      ]
    },
    {
      "mainRegion": "경상남도",
      "lat": 35.4604,
      "lng": 128.2132,
      "subRegion": [
        { "name": "창원시", "lat": 35.2271, "lng": 128.6904 },
        { "name": "진주시", "lat": 35.1798, "lng": 128.1136 },
        { "name": "통영시", "lat": 34.8583, "lng": 128.4230 },
        { "name": "사천시", "lat": 34.9603, "lng": 128.0855 },
        { "name": "김해시", "lat": 35.2323, "lng": 128.8898 },
        { "name": "밀양시", "lat": 35.4897, "lng": 128.7430 },
        { "name": "거제시", "lat": 34.8877, "lng": 128.6071 },
        { "name": "양산시", "lat": 35.3378, "lng": 129.0307 },
        { "name": "하동군", "lat": 35.1829, "lng": 127.8828 },
        { "name": "함안군", "lat": 35.2512, "lng": 128.4219 },
        { "name": "창녕군", "lat": 35.2607, "lng": 128.5554 }
      ]
    },
    {
      "mainRegion": "제주특별자치도",
      "lat": 33.4996,
      "lng": 126.5312,
      "subRegion": [
        { "name": "제주시", "lat": 33.4996, "lng": 126.5312 },
        { "name": "서귀포시", "lat": 33.2544, "lng": 126.5609 }
      ]
    }
  ]  